time(millisecond),datetime(utc),latitude,longitude,height_above_takeoff(feet),height_above_ground_at_drone_location(feet),ground_elevation_at_drone_location(feet),altitude_above_seaLevel(feet),height_sonar(feet),speed(mph),distance(feet),mileage(feet),satellites,gpslevel,voltage(v),max_altitude(feet),max_ascent(feet),max_speed(mph),max_distance(feet), xSpeed(mph), ySpeed(mph), zSpeed(mph), compass_heading(degrees), pitch(degrees), roll(degrees),isPhoto,isVideo,rc_elevator,rc_aileron,rc_throttle,rc_rudder,rc_elevator(percent),rc_aileron(percent),rc_throttle(percent),rc_rudder(percent),gimbal_heading(degrees),gimbal_pitch(degrees),gimbal_roll(degrees),battery_percent,voltageCell1,voltageCell2,voltageCell3,voltageCell4,voltageCell5,voltageCell6,current(A),battery_temperature(f),altitude(feet),ascent(feet),flycStateRaw,flycState,message
230100,2025-07-25 04:05:28,-6.88077492544035,107.454981889767,0,Available with any HD 360 subscription,Available with any HD 360 subscription,2120.6263221251,0.656168,0,0,0,32,5,0,2120.6263221251,0,0,0,0,0,0,246.7, 5.1, -0.7,0,0,1024,1024,1024,1024,0,0,0,0,231.3,0,0,84,4.021,4.017,0,0,0,0,0,115.16,2120.6263221251,0,6,P-GPS,"Dalam penerbangan... Pesawat dalam Zona Ketinggian (500 m). Terbangkan pesawat dengan hati-hati (Code: 190001). Pesawat tidak sedang terbang. Sistem penglihatan dan penghindaran penghalang dinonaktifkan (Code: 180059)"
230200,2025-07-25 04:05:28,-6.88077492739768,107.454981889706,0,,,2120.6263221251,0.656168,0,0.0007144685268,0.0007144685268,32,5,0,2120.6263221251,0,0,0.0007144685268,0,0,0,246.7, 5.1, -0.7,0,0,1024,1024,1024,1024,0,0,0,0,231.3,0,0,84,4.021,4.017,0,0,0,0,0,115.16,2120.6263221251,0,41,Motors_Started,
230300,2025-07-25 04:05:28,-6.88077492819204,107.454981891225,0,,,2120.6263221251,0.328084,0,0.0011343996426,0.00133618442596,32,5,0,2120.6263221251,0,0,0.0011343996426,0,0,0,246.7, 5.1, -0.7,0,0,1024,1024,1024,1024,0,0,0,0,231.3,0,0,84,4.021,4.017,0,0,0,0,0,115.16,2120.6263221251,0,41,Motors_Started,
230400,2025-07-25 04:05:28,-6.8807750274454,107.454981890023,0,,,2120.6263221251,0.328084,0,0.037216536624,0.037551182304,32,5,0,2120.6263221251,0,0,0.037216536624,0,0,0,246.7, 5.1, -0.7,0,0,1024,1024,1024,1024,0,0,0,0,231.3,0,0,84,4.021,4.017,0,0,0,0,0,115.16,2120.6263221251,0,41,Motors_Started,
230500,2025-07-25 04:05:28,-6.88077502763941,107.454981891853,0,,,2120.6263221251,0.328084,0,0.0372949487,0.038217520908,32,5,0,2120.6263221251,0,0,0.0372949487,0,0,0,246.7, 5.1, -0.7,0,0,1024,1024,1024,1024,0,0,0,0,231.3,0,0,84,4.021,4.017,0,0,0,0,0,115.16,2120.6263221251,0,41,Motors_Started,
230600,2025-07-25 04:05:29,-6.88077502727514,107.454981891969,0,,,2120.6263221251,0.328084,0,0.037163058932,0.038356956608,32,5,0,2120.6263221251,0,0,0.0372949487,0,0,0,246.7, 5.1, -0.7,0,0,1024,1024,1024,1024,0,0,0,0,231.3,0,0,84,4.021,4.017,0,0,0,0,0,115.16,2120.6263221251,0,41,Motors_Started,"Setting new Return-To-Home altitude to 100m (328 ft). Data Recorder File Index is 58. Setting new Maximum Flight Altitude to 120m (394 ft)"
230700,2025-07-25 04:05:29,-6.88077502724065,107.454981895979,0,,,2120.6263221251,0.328084,0,5.5371064764,0.03980971256,32,5,0,2120.6263221251,0,0,5.5371064764,0,0,0,246.7, 5.1, -0.7,0,0,1024,1024,1024,1024,0,0,0,0,231.3,0,0,84,4.021,4.017,0,0,0,0,0,115.16,2120.6263221251,0,41,Motors_Started,
230800,2025-07-25 04:05:29,-6.88077502660691,107.454981788756,0,,,2120.6263221251,0.328084,0,5.5007875776,0.078648624564,32,5,0,2120.6263221251,0,0,5.5371064764,0,0,0,246.7, 5.1, -0.7,0,0,1024,1024,1024,1024,0,0,0,0,231.3,0,0,84,4.021,4.017,0,0,0,0,0,115.16,2120.6263221251,0,41,Motors_Started,
230900,2025-07-25 04:05:29,-6.88077502588693,107.454981787419,0,,,2120.6263221251,0.328084,0,5.5004266852,0.0791994776,32,5,0,2120.6263221251,0,0,5.5371064764,0,0,0,246.7, 5.1, -0.7,0,0,1024,1024,1024,1024,0,0,0,0,231.4,0,0,84,4.021,4.017,0,0,0,0,0,115.16,2120.6263221251,0,41,Motors_Started,
231000,2025-07-25 04:05:29,-6.88077502733228,107.45498178532,0,,,2120.6263221251,0.328084,0,5.49950805,0.08012467448,32,5,0,2120.6263221251,0,0,5.5371064764,0,0,0,246.7, 5.1, -0.7,0,0,1024,1024,1024,1024,0,0,0,0,231.4,0,0,84,4.021,4.017,0,0,0,0,0,115.16,2120.6263221251,0,41,Motors_Started,
231100,2025-07-25 04:05:29,-6.88077503131054,107.454981784052,0,,,2120.6263221251,0.328084,0,5.4985894148,0.08164698424,32,5,0,2120.6263221251,0,0,5.5371064764,0,0,0,246.7, 5.1, -0.7,0,0,1024,1024,1024,1024,0,0,0,0,231.4,0,0,84,4.021,4.017,0,0,0,0,0,115.16,2120.6263221251,0,41,Motors_Started,
231200,2025-07-25 04:05:29,-6.88077492688258,107.454981787389,0,,,2120.6263221251,0.328084,0,5.5130907276,0.119766736116,32,5,0,2120.6263221251,0,0,5.5371064764,0,0,0,246.7, 5.1, -0.7,0,0,1024,1024,1024,1024,0,0,0,0,231.4,0,0,84,4.021,4.017,0,0,0,0,0,115.16,2120.6263221251,0,41,Motors_Started,
231300,2025-07-25 04:05:29,-6.88077492504166,107.454981786738,0,,,2120.6263221251,0.328084,0,5.513123536,0.120478678396,32,5,0,2120.6263221251,0,0,5.5371064764,0,0,0,246.7, 5.1, -0.7,0,0,1024,1024,1024,1024,0,0,0,0,231.4,0,0,84,4.021,4.017,0,0,0,0,0,115.16,2120.6263221251,0,41,Motors_Started,
231400,2025-07-25 04:05:29,-6.88077502571018,107.454981686845,0,,,2120.6263221251,0.328084,0,5.4663059492,0.172036750912,32,5,8.033,2120.6263221251,0,0,5.5371064764,0,0,0,246.7, 5.1, -0.7,0,0,1024,1024,1024,1024,0,0,0,0,231.4,0,0,84,4.01,4.008,0,0,0,0,0.939,115.16,2120.6263221251,0,41,Motors_Started,
231500,2025-07-25 04:05:29,-6.88077502463451,107.45498168477,0,,,2120.6263221251,0.328084,0,5.4657482064,0.172884848052,32,5,8.033,2120.6263221251,0,0,5.5371064764,0,0,0,246.7, 5.1, -0.7,0,0,1024,1024,1024,1024,0,0,0,0,231.4,0,0,84,4.01,4.008,0,0,0,0,0.939,115.16,2120.6263221251,0,41,Motors_Started,
231600,2025-07-25 04:05:30,-6.88077502751228,107.454981687052,0,,,2120.6263221251,0.328084,0,5.4661419072,0.174221134184,32,5,8.033,2120.6263221251,0,0,5.5371064764,0,0,0,246.7, 5.1, -0.7,0,0,1024,1024,1024,1024,0,0,0,0,231.4,0,0,84,4.01,4.008,0,0,0,0,0.939,115.16,2120.6263221251,0,41,Motors_Started,
231700,2025-07-25 04:05:30,-6.88077502828832,107.454981685975,0,,,2120.6263221251,0.328084,0,5.4656825896,0.174702761496,32,5,8.033,2120.6263221251,0,0,5.5371064764,0,0,0,246.7, 5.1, -0.7,0,0,1024,1024,1024,1024,0,0,0,0,231.4,0,0,84,4.01,4.008,0,0,0,0,0.939,115.16,2120.6263221251,0,41,Motors_Started,
231800,2025-07-25 04:05:30,-6.88077502689146,107.454981688197,0,,,2120.6263221251,0.328084,0,5.4666340332,0.175655517432,32,5,8.033,2120.6263221251,0,0,5.5371064764,0,0,0,246.7, 5.1, -0.7,0,0,1024,1024,1024,1024,0,0,0,0,231.4,0,0,84,4.01,4.008,0,0,0,0,0.939,115.16,2120.6263221251,0,11,AutoTakeoff,
231900,2025-07-25 04:05:30,-6.88077502271919,107.454981594665,0,,,2120.6263221251,0.328084,0,5.4354332448,0.209568904344,32,5,8.033,2120.6263221251,0,0,5.5371064764,0,0,0,246.7, 5, -0.6,0,0,1024,1024,1024,1024,0,0,0,0,231.4,0,0,84,4.01,4.008,0,0,0,0,0.939,115.16,2120.6263221251,0,11,AutoTakeoff,
232000,2025-07-25 04:05:30,-6.88077502007745,107.454981599898,0,,,2120.6263221251,0.328084,0,5.4375657908,0.211695216748,32,5,8.033,2120.6263221251,0,0,5.5371064764,0,0,0,246.8, 4.7, -0.4,0,0,1024,1024,1024,1024,0,0,0,0,231.4,0,0,84,4.01,4.008,0,0,0,0,0.939,115.16,2120.6263221251,0,11,AutoTakeoff,
232100,2025-07-25 04:05:30,-6.88077502197658,107.454981602378,0,,,2120.6263221251,0.328084,0,5.438156342,0.212830059304,32,5,8.033,2120.6263221251,0,0,5.5371064764,0,0,0,246.7, 4.2, -0.3,0,0,1024,1024,1024,1024,0,0,0,0,231.4,0,0,84,4.01,4.008,0,0,0,0,0.939,115.16,2120.6263221251,0,11,AutoTakeoff,
232200,2025-07-25 04:05:30,-6.88077512809674,107.454981595802,0,,,2120.6263221251,0.328084,0,5.4223755016,0.251621071044,32,5,8.033,2120.6263221251,0,0,5.5371064764,0,0,0,246.7, 0.8, -0.1,0,0,1024,1024,1024,1024,0,0,0,0,231.4,0,0,84,4.01,4.008,0,0,0,0,0.939,115.16,2120.6263221251,0,11,AutoTakeoff,
232300,2025-07-25 04:05:30,-6.8807751461977,107.454981581596,0,,,2120.6263221251,0,0,5.4152560788,0.259993118556,32,5,8.033,2120.6263221251,0,0,5.5371064764,0,0,-0.223694,246.6, -3, 0.1,0,0,1024,1024,1024,1024,0,0,0,0,231.4,0,0,84,4.01,4.008,0,0,0,0,0.939,115.16,2120.6263221251,0,11,AutoTakeoff,
232400,2025-07-25 04:05:30,-6.88077517621724,107.454981607438,0,,,2120.6263221251,0,0,5.420275764,0.274400927416,32,5,8.015,2120.6263221251,0,0,5.5371064764,0,0,-0.447388,247.3, 0, 0.8,0,0,1024,1024,1024,1024,0,0,0,0,231.4,0,0,84,3.987,3.984,0,0,0,0,1.87,115.16,2120.6263221251,0,11,AutoTakeoff,
232500,2025-07-25 04:05:30,-6.88077526405974,107.45498159034,0,,,2120.6263221251,0.328084,0,5.4035106716,0.307042988828,32,5,8.015,2120.6263221251,0,0,5.5371064764,0,0,-0.447388,248.1, 2.9, 2.2,0,0,1024,1024,1024,1024,0,0,0,0,231.4,0,0,84,3.987,3.984,0,0,0,0,1.87,115.16,2120.6263221251,0,11,AutoTakeoff,
232600,2025-07-25 04:05:31,-6.88077531908904,107.454981630192,0,,,2120.6263221251,0.328084,0,5.4103348188,0.33177166416,32,5,8.015,2120.6263221251,0,0,5.5371064764,0,0,-0.671082,247.6, 2.2, 3,0,0,1024,1024,1024,1024,0,0,0,0,231.4,0,0,84,3.987,3.984,0,0,0,0,1.87,115.16,2120.6263221251,0,11,AutoTakeoff,
232700,2025-07-25 04:05:31,-6.88077540894063,107.45498177312,0.328084,,,2120.9544061251,0.328084,0.223694,5.4483597544,0.39304791284,32,5,8.015,2120.9544061251,0.328084,0.223694,5.5371064764,0,0.223694,-0.671082,246.7, -0.7, 3.3,0,0,1024,1024,1024,1024,0,0,0,0,231.5,0,0,84,3.987,3.984,0,0,0,0,1.87,115.16,2120.9544061251,0.328084,11,AutoTakeoff,
232800,2025-07-25 04:05:31,-6.8807753150247,107.454981872428,0.328084,,,2120.9544061251,0.656168,0.223694,5.493602538,0.44272967296,32,5,8.015,2120.9544061251,0.328084,0.223694,5.5371064764,0,0.223694,-0.671082,246.6, -4.8, 3.3,0,0,1024,1024,1024,1024,0,0,0,0,231.5,0,0,84,3.987,3.984,0,0,0,0,1.87,115.16,2120.9544061251,0.328084,11,AutoTakeoff,
232900,2025-07-25 04:05:31,-6.88077529954615,107.454982015717,0.328084,,,2120.9544061251,0.656168,0.223694,5.544455558,0.49493767988,32,5,8.015,2120.9544061251,0.328084,0.223694,5.544455558,0,0.223694,-0.671082,246.8, -6.7, 4.5,0,0,1024,1024,1024,1024,0,0,0,0,231.5,0,0,84,3.987,3.984,0,0,0,0,1.87,115.16,2120.9544061251,0.328084,11,AutoTakeoff,
233000,2025-07-25 04:05:31,-6.88077527276127,107.454982120918,0.656168,,,2121.2824901251,0.656168,0,5.583661596,0.53427495148,32,5,8.015,2121.2824901251,0.656168,0.223694,5.583661596,0,0,-0.894776,246.4, -7.4, 5.3,0,0,1024,1024,1024,1024,0,0,0,0,231.5,0,0,84,3.987,3.984,0,0,0,0,1.87,115.16,2121.2824901251,0.656168,11,AutoTakeoff,
233100,2025-07-25 04:05:31,-6.88077515585976,107.45498221569,0.656168,,,2121.2824901251,0.984252,0,5.6301510988,0.5890256094,32,5,8.015,2121.2824901251,0.656168,0.223694,5.6301510988,0,0,-0.894776,246.2, -7, 4.3,0,0,1024,1024,1024,1024,0,0,0,0,231.5,0,0,84,3.987,3.984,0,0,0,0,1.87,115.16,2121.2824901251,0.656168,11,AutoTakeoff,
233200,2025-07-25 04:05:31,-6.8807750789099,107.454982173126,0.984252,,,2121.6105741251,0.984252,0,5.62500018,0.62105645032,32,5,8.015,2121.6105741251,0.984252,0.223694,5.6301510988,0,0,-1.11847,246.3, -6.9, 3.5,0,0,1024,1024,1024,1024,0,0,0,0,231.5,0,0,84,3.987,3.984,0,0,0,0,1.87,115.16,2121.6105741251,0.984252,11,AutoTakeoff,
233300,2025-07-25 04:05:31,-6.88077504369002,107.454982149719,0.984252,,,2121.6105741251,1.312336,0,5.621391256,0.6364501516,32,5,8.015,2121.6105741251,0.984252,0.223694,5.6301510988,0,0,-1.11847,246.4, -7.1, 3.1,0,0,1024,1024,1024,1024,0,0,0,0,231.5,0,0,84,3.987,3.984,0,0,0,0,1.87,115.16,2121.6105741251,0.984252,11,AutoTakeoff,
233400,2025-07-25 04:05:31,-6.8807750096256,107.454982117142,1.312336,,,2121.9386581251,1.312336,0,5.6145343004,0.65358925976,32,5,7.935,2121.9386581251,1.312336,0.223694,5.6301510988,0,0,-1.11847,246.8, -6.2, 2.8,0,0,1024,1024,1024,1024,0,0,0,0,231.5,0,0,84,3.959,3.955,0,0,0,0,6.105,115.16,2121.9386581251,1.312336,11,AutoTakeoff,
233500,2025-07-25 04:05:31,-6.8807750172502,107.454982056367,1.312336,,,2121.9386581251,1.64042,0,5.5929135648,0.67577758068,32,5,7.935,2121.9386581251,1.312336,0.223694,5.6301510988,0,0,-1.11847,247, -5.1, 3.6,0,0,1024,1024,1024,1024,0,0,0,0,231.5,0,0,84,3.959,3.955,0,0,0,0,6.105,115.16,2121.9386581251,1.312336,11,AutoTakeoff,
233600,2025-07-25 04:05:32,-6.88077501082002,107.454982004704,1.64042,,,2122.2667421251,1.968504,0,5.5761484724,0.69463912984,32,5,7.935,2122.2667421251,1.64042,0.223694,5.6301510988,0,0,-1.11847,246.8, -5.4, 3.6,0,0,1024,1024,1024,1024,0,0,0,0,231.5,0,0,84,3.959,3.955,0,0,0,0,6.105,115.16,2122.2667421251,1.64042,11,AutoTakeoff,
233700,2025-07-25 04:05:32,-6.88077490997053,107.454982074267,1.968504,,,2122.5948261251,1.968504,0,5.612532988,0.73923558796,32,5,7.935,2122.5948261251,1.968504,0.223694,5.6301510988,0,0,-1.11847,246.4, -6.5, 3,0,0,1024,1024,1024,1024,0,0,0,0,231.5,0,0,84,3.959,3.955,0,0,0,0,6.105,115.16,2122.5948261251,1.968504,11,AutoTakeoff,
233800,2025-07-25 04:05:32,-6.88077492490599,107.454982039199,1.968504,,,2122.5948261251,2.296588,0,5.59875346,0.75305448604,32,5,7.935,2122.5948261251,1.968504,0.223694,5.6301510988,0,0,-0.894776,246.4, -6, 4.1,0,0,1024,1024,1024,1024,0,0,0,0,231.5,0,0,84,3.959,3.955,0,0,0,0,6.105,115.16,2122.5948261251,1.968504,11,AutoTakeoff,
233900,2025-07-25 04:05:32,-6.8807749613709,107.454981883571,1.968504,,,2122.5948261251,2.296588,0,5.5412731432,0.81097771624,32,5,7.935,2122.5948261251,1.968504,0.223694,5.6301510988,0,0,-0.894776,246.9, -4.8, 5.1,0,0,1024,1024,1024,1024,0,0,0,0,231.5,0,0,84,3.959,3.955,0,0,0,0,6.105,115.16,2122.5948261251,1.968504,11,AutoTakeoff,
234000,2025-07-25 04:05:32,-6.88077497568769,107.45498182747,2.296588,,,2122.9229101251,2.624672,0,5.5204070008,0.83195868804,32,5,7.935,2122.9229101251,2.296588,0.223694,5.6301510988,0,0,-1.11847,246.6, -4, 5.1,0,0,1024,1024,1024,1024,0,0,0,0,231.5,0,0,84,3.959,3.955,0,0,0,0,6.105,115.16,2122.9229101251,2.296588,11,AutoTakeoff,
234100,2025-07-25 04:05:32,-6.88077504678516,107.454981745342,2.296588,,,2122.9229101251,2.624672,0,5.4834647424,0.87142719324,32,5,7.935,2122.9229101251,2.296588,0.223694,5.6301510988,0,0,-1.11847,246.3, -3.6, 3.1,0,0,1024,1024,1024,1024,0,0,0,0,231.5,0,0,84,3.959,3.955,0,0,0,0,6.105,115.16,2122.9229101251,2.296588,11,AutoTakeoff,
234200,2025-07-25 04:05:32,-6.88077513846903,107.454981686895,2.624672,,,2123.2509941251,2.952756,0,5.4520342952,0.91101380868,32,5,7.935,2123.2509941251,2.624672,0.223694,5.6301510988,0,0,-1.11847,246.6, -1.7, 2.6,0,0,1024,1024,1024,1024,0,0,0,0,231.5,0,0,84,3.959,3.955,0,0,0,0,6.105,115.16,2123.2509941251,2.624672,11,AutoTakeoff,
234300,2025-07-25 04:05:32,-6.88077515492745,107.454981638503,2.952756,,,2123.5790781251,2.952756,0,5.4334975492,0.929543993,32,5,7.935,2123.5790781251,2.952756,0.223694,5.6301510988,0,0,-1.11847,247, 0.1, 3.8,0,0,1024,1024,1024,1024,0,0,0,0,231.5,0,0,84,3.959,3.955,0,0,0,0,6.105,115.16,2123.5790781251,2.952756,11,AutoTakeoff,
234400,2025-07-25 04:05:32,-6.88077511677267,107.454981629884,2.952756,,,2123.5790781251,3.28084,0,5.4354004364,0.94380908532,32,5,7.921,2123.5790781251,2.952756,0.223694,5.6301510988,0,0,-1.11847,246.8, -1.2, 3.6,0,0,1024,1024,1024,1024,0,0,0,0,231.5,0,0,84,3.961,3.957,0,0,0,0,6.396,115.16,2123.5790781251,2.952756,11,AutoTakeoff,
234500,2025-07-25 04:05:33,-6.88077507062476,107.454981657945,3.28084,,,2123.9071621251,3.28084,0,5.450787576,0.96347772112,32,5,7.921,2123.9071621251,3.28084,0.223694,5.6301510988,0,0,-1.11847,246.9, -3.4, 2.2,0,0,1024,1024,1024,1024,0,0,0,0,231.5,0,0,84,3.961,3.957,0,0,0,0,6.396,115.16,2123.9071621251,3.28084,11,AutoTakeoff,
234600,2025-07-25 04:05:33,-6.88077498526894,107.454981774649,3.28084,,,2123.9071621251,3.608924,0,5.5012797036,1.01598428448,32,5,7.921,2123.9071621251,3.28084,0.223694,5.6301510988,0,0,-1.11847,246.8, -4, 2,0,0,1024,1024,1024,1024,0,0,0,0,231.5,0,0,84,3.961,3.957,0,0,0,0,6.396,115.16,2123.9071621251,3.28084,11,AutoTakeoff,
234700,2025-07-25 04:05:33,-6.88077495756148,107.454981802892,3.608924,,,2124.2352461251,3.608924,0,5.5144030636,1.0303642062,32,5,7.921,2124.2352461251,3.608924,0.223694,5.6301510988,0,0,-0.894776,246.7, -3.9, 1.9,0,0,1024,1024,1024,1024,0,0,0,0,231.5,0,0,84,3.961,3.957,0,0,0,0,6.396,115.16,2124.2352461251,3.608924,11,AutoTakeoff,
234800,2025-07-25 04:05:33,-6.88077492478926,107.454981873666,3.608924,,,2124.2352461251,3.937008,0,5.5426182876,1.05865160868,32,5,7.921,2124.2352461251,3.608924,0.223694,5.6301510988,0,0,-0.447388,246.8, -3.4, 2.5,0,0,1024,1024,1024,1024,0,0,0,0,231.5,0,0,84,3.961,3.957,0,0,0,0,6.396,115.16,2124.2352461251,3.608924,6,P-GPS,
234900,2025-07-25 04:05:33,-6.88077494388397,107.454981910878,3.608924,,,2124.2352461251,3.937008,0,5.5527888916,1.07382549368,32,5,7.921,2124.2352461251,3.608924,0.223694,5.6301510988,0,0,-0.223694,246.9, -3, 3,0,0,1024,1024,1024,1024,0,0,0,0,231.5,0,0,84,3.961,3.957,0,0,0,0,6.396,115.16,2124.2352461251,3.608924,6,P-GPS,
235000,2025-07-25 04:05:33,-6.8807749642063,107.454981937417,3.608924,,,2124.2352461251,3.937008,0,5.5591865296,1.08596460168,32,5,7.921,2124.2352461251,3.608924,0.223694,5.6301510988,0,0,0,246.8, -2.8, 3,0,0,1024,1024,1024,1024,0,0,0,0,231.5,0,0,84,3.961,3.957,0,0,0,0,6.396,115.16,2124.2352461251,3.608924,6,P-GPS,
235100,2025-07-25 04:05:33,-6.88077486911547,107.45498198495,3.608924,,,2124.2352461251,3.937008,0,5.5875001788,1.12469819872,32,5,7.921,2124.2352461251,3.608924,0.223694,5.6301510988,0,0,0,246.6, -2.6, 2.8,0,0,1024,1024,1024,1024,0,0,0,0,231.5,0,0,84,3.961,3.957,0,0,0,0,6.396,115.16,2124.2352461251,3.608924,6,P-GPS,
235200,2025-07-25 04:05:33,-6.88077494362417,107.454981952749,3.608924,,,2124.2352461251,3.937008,0,5.5670277372,1.15427825216,32,5,7.921,2124.2352461251,3.608924,0.223694,5.6301510988,0,0,0,246.6, -2.9, 3.1,0,0,1024,1024,1024,1024,0,0,0,0,231.5,0,0,84,3.961,3.957,0,0,0,0,6.396,115.16,2124.2352461251,3.608924,6,P-GPS,
235300,2025-07-25 04:05:33,-6.88077495401543,107.454981957294,3.608924,,,2124.2352461251,3.937008,0,5.5672245876,1.15841211056,32,5,7.921,2124.2352461251,3.608924,0.223694,5.6301510988,0,0,0,246.6, -2.9, 3.3,0,0,1024,1024,1024,1024,0,0,0,0,231.5,0,0,84,3.961,3.957,0,0,0,0,6.396,115.16,2124.2352461251,3.608924,6,P-GPS,
235400,2025-07-25 04:05:33,-6.88077492431931,107.454981934777,3.608924,,,2124.2352461251,3.937008,0,5.5633860048,1.17197182228,32,5,7.922,2124.2352461251,3.608924,0.223694,5.6301510988,0,0,0,246.6, -2.5, 2.8,0,0,1024,1024,1024,1024,0,0,0,0,231.5,0,0,84,3.964,3.959,0,0,0,0,5.924,115.16,2124.2352461251,3.608924,6,P-GPS,
235500,2025-07-25 04:05:34,-6.88077490132722,107.454981914825,3.608924,,,2124.2352461251,3.937008,0,5.5595802304,1.18304465728,32,5,7.922,2124.2352461251,3.608924,0.223694,5.6301510988,0,0,0,246.5, -2.3, 1.1,0,0,1024,1024,1024,1024,0,0,0,0,231.5,0,0,84,3.964,3.959,0,0,0,0,5.924,115.16,2124.2352461251,3.608924,6,P-GPS,
235600,2025-07-25 04:05:34,-6.88077480384908,107.454981917519,3.608924,,,2124.2352461251,3.937008,0,5.573162908,1.21862208624,32,5,7.922,2124.2352461251,3.608924,0.223694,5.6301510988,0,0,0,246.5, -2.1, 0.5,0,0,1024,1024,1024,1024,0,0,0,0,231.5,0,0,84,3.964,3.959,0,0,0,0,5.924,115.16,2124.2352461251,3.608924,6,P-GPS,
235700,2025-07-25 04:05:34,-6.88077480825413,107.454981910885,3.608924,,,2124.2352461251,3.937008,0,5.5703413856,1.22151250628,32,5,7.922,2124.2352461251,3.608924,0.223694,5.6301510988,0,0,0,246.4, -2.3, 1.4,0,0,1024,1024,1024,1024,0,0,0,0,231.5,0,0,84,3.964,3.959,0,0,0,0,5.924,115.16,2124.2352461251,3.608924,6,P-GPS,
235800,2025-07-25 04:05:34,-6.8807748307321,107.454981915248,3.608924,,,2124.2352461251,3.937008,0,5.5688650076,1.22986552492,32,5,7.922,2124.2352461251,3.608924,0.223694,5.6301510988,0,0,0,246.4, -2.1, 1.8,0,0,1024,1024,1024,1024,0,0,0,0,231.5,0,0,84,3.964,3.959,0,0,0,0,5.924,115.16,2124.2352461251,3.608924,6,P-GPS,
235900,2025-07-25 04:05:34,-6.88077486853994,107.454981855459,3.608924,,,2124.2352461251,3.937008,0,5.5437337732,1.25554137876,32,5,7.922,2124.2352461251,3.608924,0.223694,5.6301510988,0,0,0,246.7, -2.4, 2.5,0,0,1024,1024,1024,1024,0,0,0,0,231.5,0,0,84,3.964,3.959,0,0,0,0,5.924,115.16,2124.2352461251,3.608924,6,P-GPS,
236000,2025-07-25 04:05:34,-6.88077488600928,107.454981875126,3.608924,,,2124.2352461251,3.937008,0,5.5480972904,1.26510174652,32,5,7.922,2124.2352461251,3.608924,0.223694,5.6301510988,0,0,0,246.7, -2.5, 3.1,0,0,1024,1024,1024,1024,0,0,0,0,231.5,0,0,84,3.964,3.959,0,0,0,0,5.924,115.16,2124.2352461251,3.608924,6,P-GPS,
236100,2025-07-25 04:05:34,-6.88077483166552,107.45498187727,3.608924,,,2124.2352461251,3.937008,0,5.5559056896,1.28494426684,32,5,7.922,2124.2352461251,3.608924,0.223694,5.6301510988,0,0,0,246.6, -2.7, 2.2,0,0,1024,1024,1024,1024,0,0,0,0,231.5,0,0,84,3.964,3.959,0,0,0,0,5.924,115.16,2124.2352461251,3.608924,6,P-GPS,
236200,2025-07-25 04:05:34,-6.8807747954755,107.454981965684,3.608924,,,2124.2352461251,3.937008,0,5.5905185516,1.31958337556,32,5,7.922,2124.2352461251,3.608924,0.223694,5.6301510988,0,0,0,246.3, -3.6, 1.3,0,0,1024,1024,1024,1024,0,0,0,0,231.5,0,0,84,3.964,3.959,0,0,0,0,5.924,115.16,2124.2352461251,3.608924,6,P-GPS,
236300,2025-07-25 04:05:34,-6.88077477153601,107.454981999999,3.608924,,,2124.2352461251,3.937008,0,5.6052495232,1.3347769456,32,5,7.922,2124.2352461251,3.608924,0.223694,5.6301510988,0,0,0,246.1, -4.3, 0.9,0,0,1024,1024,1024,1024,0,0,0,0,231.5,0,0,84,3.964,3.959,0,0,0,0,5.924,115.16,2124.2352461251,3.608924,6,P-GPS,
236400,2025-07-25 04:05:34,-6.88077480436859,107.454982076558,3.608924,,,2124.2352461251,3.937008,0,5.6269030672,1.36498363948,32,5,7.911,2124.2352461251,3.608924,0.223694,5.6301510988,0,0,0,246.3, -5, 1.8,0,0,1024,1024,1024,1024,0,0,0,0,231.5,0,0,84,3.96,3.954,0,0,0,0,6.316,115.16,2124.2352461251,3.608924,6,P-GPS,"Titik Asal diperbarui (Code: 30800)"
236500,2025-07-25 04:05:34,-6.88077482126559,107.454982084509,3.608924,,,2124.2352461251,3.937008,0,5.6273951932,1.37178810164,32,5,7.911,2124.2352461251,3.608924,0.223694,5.6301510988,0,0,0,246.3, -4.4, 1.8,0,0,1024,1024,1024,1024,0,0,0,0,231.5,0,0,84,3.96,3.954,0,0,0,0,6.316,115.16,2124.2352461251,3.608924,6,P-GPS,
236600,2025-07-25 04:05:35,-6.88077486055971,107.454982037217,3.608924,,,2124.2352461251,3.937008,0,5.606299392,1.3941273412,32,5,7.911,2124.2352461251,3.608924,0.223694,5.6301510988,0,0,0,246.4, -2.6, 2.3,0,0,1024,1024,1024,1024,0,0,0,0,231.5,0,0,84,3.96,3.954,0,0,0,0,6.316,115.16,2124.2352461251,3.608924,6,P-GPS,
236700,2025-07-25 04:05:35,-6.8807749198442,107.454982035164,3.608924,,,2124.2352461251,3.937008,0,5.5980316752,1.41576776184,32,5,7.911,2124.2352461251,3.608924,0.223694,5.6301510988,0,0,0,246.7, -2, 3.9,0,0,1024,1024,1024,1024,0,0,0,0,231.5,0,0,84,3.96,3.954,0,0,0,0,6.316,115.16,2124.2352461251,3.608924,6,P-GPS,
236800,2025-07-25 04:05:35,-6.88077487184449,107.454982054251,3.608924,,,2124.2352461251,3.937008,0,5.6106301008,1.4345965026,32,5,7.911,2124.2352461251,3.608924,0.223694,5.6301510988,0,0,0,246.4, -2.8, 4.2,0,0,1024,1024,1024,1024,0,0,0,0,231.5,0,0,84,3.96,3.954,0,0,0,0,6.316,115.16,2124.2352461251,3.608924,6,P-GPS,
236900,2025-07-25 04:05:35,-6.88077489392043,107.45498207683,3.608924,,,2124.2352461251,3.937008,0,5.6154529356,1.44607616176,32,5,7.911,2124.2352461251,3.608924,0.223694,5.6301510988,0,0,0,246.2, -3.7, 3.8,0,0,1024,1024,1024,1024,0,0,0,0,231.5,0,0,84,3.96,3.954,0,0,0,0,6.316,115.16,2124.2352461251,3.608924,6,P-GPS,
237000,2025-07-25 04:05:35,-6.88077491543805,107.454982099527,3.608924,,,2124.2352461251,3.937008,0,5.6204398124,1.45744427236,32,5,7.911,2124.2352461251,3.608924,0.223694,5.6301510988,0,0,0,246, -4.3, 3.4,0,0,1024,1024,1024,1024,0,0,0,0,231.5,0,0,84,3.96,3.954,0,0,0,0,6.316,115.16,2124.2352461251,3.608924,6,P-GPS,
237100,2025-07-25 04:05:35,-6.88077499996077,107.454982082449,3.608924,,,2124.2352461251,3.937008,0,5.6039371872,1.4888944046,32,5,7.911,2124.2352461251,3.608924,0.223694,5.6301510988,0,0,0,246.4, -3.4, 4.6,0,0,1024,1253,1024,1024,0,35,0,0,231.5,0,0,84,3.96,3.954,0,0,0,0,6.316,115.16,2124.2352461251,3.608924,6,P-GPS,
237200,2025-07-25 04:05:35,-6.88077497678112,107.454982049711,3.608924,,,2124.2352461251,3.937008,0,5.5957350872,1.5034613342,32,5,7.911,2124.2352461251,3.608924,0.223694,5.6301510988,0,0,0,246.6, -2.2, 5.7,0,0,1024,1247,1024,1024,0,34,0,0,231.5,0,0,84,3.96,3.954,0,0,0,0,6.316,115.16,2124.2352461251,3.608924,6,P-GPS,
237300,2025-07-25 04:05:35,-6.88077498346469,107.454982049663,3.608924,,,2124.2352461251,3.937008,0,5.5948820688,1.50589899832,32,5,7.911,2124.2352461251,3.608924,0.223694,5.6301510988,0,0,0,246.6, -2.2, 6.3,0,0,1024,1271,1024,1024,0,37,0,0,231.5,0,0,84,3.96,3.954,0,0,0,0,6.316,115.16,2124.2352461251,3.608924,6,P-GPS,
237400,2025-07-25 04:05:35,-6.88077490844185,107.454982047685,3.608924,,,2124.2352461251,3.937008,0,5.6037075284,1.53328088896,32,5,7.911,2124.2352461251,3.608924,0.223694,5.6301510988,0,0,0,246.1, -3.2, 7,0,0,1024,1312,1024,1024,0,44,0,0,231.5,0,0,84,3.959,3.954,0,0,0,0,6.098,115.34,2124.2352461251,3.608924,6,P-GPS,
237500,2025-07-25 04:05:35,-6.88077483890513,107.454982027932,3.608924,,,2124.2352461251,3.937008,0,5.605971308,1.55964243836,32,5,7.911,2124.2352461251,3.608924,0.223694,5.6301510988,0,0,0,245.9, -3.9, 7.5,0,0,1024,1326,1024,1024,0,46,0,0,231.5,0,0,84,3.959,3.954,0,0,0,0,6.098,115.34,2124.2352461251,3.608924,6,P-GPS,
237600,2025-07-25 04:05:36,-6.88077476019938,107.454981896166,3.608924,,,2124.2352461251,3.937008,0.223694,5.5716537216,1.61534125904,32,5,7.911,2124.2352461251,3.608924,0.223694,5.6301510988,0.223694,0,0,246.4, -3.4, 9.3,0,0,1024,1332,1024,1024,0,47,0,0,231.5,0,0,84,3.959,3.954,0,0,0,0,6.098,115.34,2124.2352461251,3.608924,6,P-GPS,
237700,2025-07-25 04:05:36,-6.88077462508909,107.454981787729,3.608924,,,2124.2352461251,3.937008,0.3131716,5.5532154008,1.67837275712,32,5,7.911,2124.2352461251,3.608924,0.3131716,5.6301510988,0.223694,-0.223694,0,247.1, -1.6, 11.2,0,0,1024,1371,1024,1024,0,53,0,0,231.5,0,0,84,3.959,3.954,0,0,0,0,6.098,115.34,2124.2352461251,3.608924,6,P-GPS,
237800,2025-07-25 04:05:36,-6.88077437667714,107.454981647792,3.608924,,,2124.2352461251,3.937008,0.7158208,5.5407810172,1.7822179048,32,5,7.911,2124.2352461251,3.608924,0.7158208,5.6301510988,0.671082,-0.223694,0,247.1, -1.1, 11.2,0,0,1024,1380,1024,1024,0,54,0,0,231.5,0,0,84,3.959,3.954,0,0,0,0,6.098,115.34,2124.2352461251,3.608924,6,P-GPS,
237900,2025-07-25 04:05:36,-6.88077386282043,107.454981461852,3.608924,,,2124.2352461251,3.937008,0.9171454,5.5552167132,1.98142722876,32,5,7.911,2124.2352461251,3.608924,0.9171454,5.6301510988,0.894776,-0.223694,0,246.8, -1.9, 11.3,0,0,1024,1394,1024,1024,0,56,0,0,231.5,0,0,84,3.959,3.954,0,0,0,0,6.098,115.34,2124.2352461251,3.608924,6,P-GPS,
238000,2025-07-25 04:05:36,-6.88077336130802,107.45498127187,3.608924,,,2124.2352461251,3.937008,0.9171454,5.5733597584,2.17691608016,32,5,7.911,2124.2352461251,3.608924,0.9171454,5.6301510988,1.11847,-0.447388,0,246.2, -2.6, 10.3,0,0,1024,1432,1024,1024,0,62,0,0,231.5,0,0,84,3.959,3.954,0,0,0,0,6.098,115.34,2124.2352461251,3.608924,6,P-GPS,
238100,2025-07-25 04:05:36,-6.88077269673849,107.454981071935,3.608924,,,2124.2352461251,3.937008,1.4092722,5.62417997,2.42996726936,32,5,7.911,2124.2352461251,3.608924,1.4092722,5.6301510988,1.342164,-0.447388,0,246.1, -3.7, 10,0,0,1024,1441,1024,1024,0,63,0,0,231.5,0,0,84,3.959,3.954,0,0,0,0,6.098,115.34,2124.2352461251,3.608924,6,P-GPS,
238200,2025-07-25 04:05:36,-6.88077202962097,107.454980844118,3.608924,,,2124.2352461251,3.937008,1.6329662,5.6777232788,2.6869751516,32,5,7.911,2124.2352461251,3.608924,1.6329662,5.6777232788,1.565858,-0.447388,0,246.1, -4.5, 12.7,0,0,1024,1441,1024,1024,0,63,0,0,231.5,0,0,84,3.959,3.954,0,0,0,0,6.098,115.34,2124.2352461251,3.608924,6,P-GPS,
238300,2025-07-25 04:05:36,-6.88077129749683,107.454980565441,3.608924,,,2124.2352461251,3.937008,1.901399,5.7406169816,2.97252634184,32,5,7.911,2124.2352461251,3.608924,1.901399,5.7406169816,1.789552,-0.671082,0,246.2, -3.8, 14.7,0,0,1024,1440,1024,1024,0,63,0,0,231.5,0,0,84,3.959,3.954,0,0,0,0,6.098,115.34,2124.2352461251,3.608924,6,P-GPS,
238400,2025-07-25 04:05:36,-6.88077036959717,107.45498014542,3.608924,,,2124.2352461251,3.937008,2.1922012,5.8205054356,3.3437008944,32,5,7.915,2124.2352461251,3.608924,2.1922012,5.8205054356,2.013246,-0.894776,0,245.9, -3.3, 14.5,0,0,1024,1438,1024,1024,0,63,0,0,231.5,0,0,84,3.955,3.949,0,0,0,0,5.61,115.34,2124.2352461251,3.608924,6,P-GPS,
238500,2025-07-25 04:05:36,-6.88076941982318,107.45497975599,3.608924,,,2124.2352461251,3.937008,2.4158952,5.9361550456,3.7178150796,32,5,7.915,2124.2352461251,3.608924,2.4158952,5.9361550456,2.23694,-0.894776,0,245.9, -3.2, 14.3,0,0,1024,1373,1024,1024,0,53,0,0,231.5,0,0,84,3.955,3.949,0,0,0,0,5.61,115.34,2124.2352461251,3.608924,6,P-GPS,
238600,2025-07-25 04:05:37,-6.8807684888097,107.454979265777,3.608924,,,2124.2352461251,3.937008,2.6172198,6.0421917944,4.1011156168,32,5,7.915,2124.2352461251,3.608924,2.6172198,6.0421917944,2.460634,-0.894776,0,246.1, -3.2, 15,0,0,1024,1337,1024,1024,0,47,0,0,231.5,0,0,84,3.955,3.949,0,0,0,0,5.61,115.34,2124.2352461251,3.608924,6,P-GPS,
238700,2025-07-25 04:05:37,-6.88076736958711,107.454978811134,3.608924,,,2124.2352461251,3.937008,2.908022,6.230479202,4.5414043448,32,5,7.915,2124.2352461251,3.608924,2.908022,6.230479202,2.684328,-1.11847,0,246, -3.9, 13.7,0,0,1024,1334,1024,1024,0,47,0,0,231.5,0,0,84,3.955,3.949,0,0,0,0,5.61,115.34,2124.2352461251,3.608924,6,P-GPS,
238800,2025-07-25 04:05:37,-6.88076613743034,107.45497818406,3.608924,,,2124.2352461251,3.937008,3.1093466,6.4386485,5.0450789016,32,5,7.915,2124.2352461251,3.608924,3.1093466,6.4386485,2.908022,-1.11847,0,246.2, -3.3, 11.3,0,0,1024,1265,1024,1024,0,37,0,0,231.5,0,0,84,3.955,3.949,0,0,0,0,5.61,115.34,2124.2352461251,3.608924,6,P-GPS,
238900,2025-07-25 04:05:37,-6.88076491236139,107.454977658388,3.608924,,,2124.2352461251,3.937008,3.1093466,6.6962272484,5.5309384972,32,5,7.915,2124.2352461251,3.608924,3.1093466,6.6962272484,2.908022,-1.11847,0,246, -3.3, 10.3,0,0,1024,1024,1024,1024,0,0,0,0,231.5,0,0,84,3.955,3.949,0,0,0,0,5.61,115.34,2124.2352461251,3.608924,6,P-GPS,
239000,2025-07-25 04:05:37,-6.88076366564116,107.454977124807,3.608924,,,2124.2352461251,3.937008,3.1093466,6.983596024,6.0251642348,32,5,7.915,2124.2352461251,3.608924,3.1093466,6.983596024,2.908022,-1.11847,0,246.2, -3.2, 10,0,0,1024,1024,1024,1024,0,0,0,0,231.5,0,0,84,3.955,3.949,0,0,0,0,5.61,115.34,2124.2352461251,3.608924,6,P-GPS,
239100,2025-07-25 04:05:37,-6.8807623040941,107.4549766159,3.608924,,,2124.2352461251,3.937008,3.1093466,7.3346130956,6.5550198948,32,5,7.915,2124.2352461251,3.608924,3.1093466,7.3346130956,2.908022,-1.11847,0,246.3, -3, 8.5,0,0,1024,1024,1024,1024,0,0,0,0,231.5,0,0,84,3.955,3.949,0,0,0,0,5.61,115.34,2124.2352461251,3.608924,6,P-GPS,
239200,2025-07-25 04:05:37,-6.8807610487103,107.454976160142,3.608924,,,2124.2352461251,3.937008,3.1093466,7.678477936,7.0418637424,32,5,7.915,2124.2352461251,3.608924,3.1093466,7.678477936,2.908022,-1.11847,0,246.5, -3.3, -0.6,0,0,1024,1024,1024,1024,0,0,0,0,231.5,0,0,84,3.955,3.949,0,0,0,0,5.61,115.34,2124.2352461251,3.608924,6,P-GPS,
239300,2025-07-25 04:05:37,-6.88075993385287,107.454975709513,3.608924,,,2124.2352461251,3.937008,2.6172198,7.9901249276,7.480151158,32,5,7.915,2124.2352461251,3.608924,3.1093466,7.9901249276,2.460634,-0.894776,0,247, -3.1, -11.5,0,0,1024,1024,1024,1024,0,0,0,0,231.5,0,0,84,3.955,3.949,0,0,0,0,5.61,115.34,2124.2352461251,3.608924,6,P-GPS,
239400,2025-07-25 04:05:37,-6.880759178201,107.45497561658,3.608924,,,2124.2352461251,3.937008,1.6329662,8.2349412084,7.7579070724,32,5,7.898,2124.2352461251,3.608924,3.1093466,8.2349412084,1.565858,-0.447388,0,247, -3.6, -18.9,0,0,1024,1024,1024,1024,0,0,0,0,231.5,0,0,84,3.945,3.93,0,0,0,0,6.557,115.34,2124.2352461251,3.608924,6,P-GPS,
239500,2025-07-25 04:05:37,-6.88075878764164,107.454975499932,3.608924,,,2124.2352461251,3.937008,0.447388,8.353674808,7.9065291244,32,5,7.898,2124.2352461251,3.608924,3.1093466,8.353674808,0.447388,0,0,246.9, -4.2, -10.5,0,0,1024,1024,1024,1024,0,0,0,0,231.5,0,0,84,3.945,3.93,0,0,0,0,6.557,115.34,2124.2352461251,3.608924,6,P-GPS,
239600,2025-07-25 04:05:38,-6.88075868316842,107.454975490265,3.608924,,,2124.2352461251,3.937008,0,8.3882548616,7.9448165272,32,5,7.898,2124.2352461251,3.608924,3.1093466,8.3882548616,0,0,0,246.5, -5.2, -2.2,0,0,1024,1053,1024,1024,0,4,0,0,231.5,0,0,84,3.945,3.93,0,0,0,0,6.557,115.34,2124.2352461251,3.608924,6,P-GPS,
239700,2025-07-25 04:05:38,-6.8807587816706,107.454975504363,3.608924,,,2124.2352461251,3.937008,0.223694,8.3562666716,7.9811026176,31,5,7.898,2124.2352461251,3.608924,3.1093466,8.3882548616,-0.223694,0,0,246.5, -3.7, 1.2,0,0,1024,1024,1024,1024,0,0,0,0,231.5,0,0,84,3.945,3.93,0,0,0,0,6.557,115.34,2124.2352461251,3.608924,6,P-GPS,
239800,2025-07-25 04:05:38,-6.88075889524064,107.454975506809,3.608924,,,2124.2352461251,3.937008,0.223694,8.3176839932,8.0225724352,31,5,7.898,2124.2352461251,3.608924,3.1093466,8.3882548616,-0.223694,0,0,246.8, -1.8, 3.7,0,0,1024,642,1024,1024,0,-58,0,0,231.5,0,0,84,3.945,3.93,0,0,0,0,6.557,115.34,2124.2352461251,3.608924,6,P-GPS,
239900,2025-07-25 04:05:38,-6.88075920465516,107.454975490685,3.608924,,,2124.2352461251,3.937008,0.447388,8.2098427824,8.1355973732,31,5,7.898,2124.2352461251,3.608924,3.1093466,8.3882548616,-0.447388,0,0,246.7, -1.4, 4.3,0,0,1024,552,1024,1024,0,-72,0,0,231.5,0,0,84,3.945,3.93,0,0,0,0,6.557,115.34,2124.2352461251,3.608924,6,P-GPS,
240000,2025-07-25 04:05:38,-6.88075941958352,107.454975585231,3.608924,,,2124.2352461251,3.937008,0.4921268,8.1485894996,8.2211616804,31,5,7.898,2124.2352461251,3.608924,3.1093466,8.3882548616,-0.447388,0.223694,0,246.6, -2.1, -1.5,0,0,1024,515,1024,1024,0,-77,0,0,231.5,0,0,84,3.945,3.93,0,0,0,0,6.557,115.34,2124.2352461251,3.608924,6,P-GPS,
240100,2025-07-25 04:05:38,-6.88075985513322,107.454975688843,3.608924,,,2124.2352461251,3.937008,0.7158208,8.0140750596,8.3844490872,32,5,7.898,2124.2352461251,3.608924,3.1093466,8.3882548616,-0.671082,0.223694,0,246.7, -2.7, -7.9,0,0,1024,454,1024,1024,0,-86,0,0,231.5,0,0,84,3.945,3.93,0,0,0,0,6.557,115.34,2124.2352461251,3.608924,6,P-GPS,
240200,2025-07-25 04:05:38,-6.88076023878363,107.454975861738,3.608924,,,2124.2352461251,3.937008,1.2974252,7.9076774184,8.5377955488,32,5,7.898,2124.2352461251,3.608924,3.1093466,8.3882548616,-1.11847,0.671082,0,246.8, -3.1, -9.5,0,0,1024,455,1024,1024,0,-86,0,0,231.5,0,0,84,3.945,3.93,0,0,0,0,6.557,115.34,2124.2352461251,3.608924,6,P-GPS,
240300,2025-07-25 04:05:38,-6.88076092059831,107.45497621218,3.608924,,,2124.2352461251,3.937008,1.9908766,7.72883883,8.8170606496,32,5,7.898,2124.2352461251,3.608924,3.1093466,8.3882548616,-1.789552,0.894776,0,247, -3.6, -10.9,0,0,1024,456,1024,1024,0,-86,0,0,231.5,0,0,84,3.945,3.93,0,0,0,0,6.557,115.34,2124.2352461251,3.608924,6,P-GPS,
240400,2025-07-25 04:05:38,-6.88076189857237,107.454976736288,3.608924,,,2124.2352461251,3.937008,2.5053728,7.4865159876,9.2212273292,32,5,7.884,2124.2352461251,3.608924,3.1093466,8.3882548616,-2.23694,1.11847,0,247.3, -3.9, -11.4,0,0,1024,464,1024,1024,0,-85,0,0,231.5,0,0,84,3.951,3.944,0,0,0,0,7.364,115.52,2124.2352461251,3.608924,6,P-GPS,
240500,2025-07-25 04:05:38,-6.88076295860533,107.454977242463,3.608924,,,2124.2352461251,3.937008,2.908022,7.2292653232,9.6492457156,32,5,7.884,2124.2352461251,3.608924,3.1093466,8.3882548616,-2.684328,1.11847,0,247.5, -4.3, -11.1,0,0,1024,468,1024,1024,0,-84,0,0,231.5,0,0,84,3.951,3.944,0,0,0,0,7.364,115.52,2124.2352461251,3.608924,6,P-GPS,
240600,2025-07-25 04:05:39,-6.88076422302336,107.454977744593,3.608924,,,2124.2352461251,3.937008,3.4001488,6.9248033712,10.1451446816,32,5,7.884,2124.2352461251,3.608924,3.4001488,8.3882548616,-3.131716,1.342164,0,247.5, -3.8, -12.8,0,0,1024,489,1024,1024,0,-81,0,0,231.5,0,0,84,3.951,3.944,0,0,0,0,7.364,115.52,2124.2352461251,3.608924,6,P-GPS,
240700,2025-07-25 04:05:39,-6.88076552735531,107.454978310555,3.608924,,,2124.2352461251,3.937008,3.6238428,6.6451445696,10.6632877428,32,5,7.884,2124.2352461251,3.608924,3.6238428,8.3882548616,-3.35541,1.342164,0,247.4, -3.6, -14.4,0,0,1024,528,1024,1024,0,-75,0,0,231.5,0,0,84,3.951,3.944,0,0,0,0,7.364,115.52,2124.2352461251,3.608924,6,P-GPS,
240800,2025-07-25 04:05:39,-6.88076722529681,107.454979036038,3.608924,,,2124.2352461251,3.937008,4.1159696,6.323655058,11.3362208352,32,5,7.884,2124.2352461251,3.608924,4.1159696,8.3882548616,-3.802798,1.565858,0,247.2, -3.4, -14,0,0,1024,536,1024,1024,0,-74,0,0,231.5,0,0,84,3.951,3.944,0,0,0,0,7.364,115.52,2124.2352461251,3.608924,6,P-GPS,
240900,2025-07-25 04:05:39,-6.88076892324156,107.454979738866,3.608924,,,2124.2352461251,3.937008,4.6080964,6.0541012436,12.0059715128,32,5,7.884,2124.2352461251,3.608924,4.6080964,8.3882548616,-4.250186,1.789552,0,246.9, -2.6, -12.9,0,0,1024,547,1024,1024,0,-72,0,0,231.5,0,0,84,3.951,3.944,0,0,0,0,7.364,115.52,2124.2352461251,3.608924,6,P-GPS,
241000,2025-07-25 04:05:39,-6.88077073966043,107.454980494428,3.608924,,,2124.2352461251,3.937008,4.809421,5.838582864,12.7229990948,32,5,7.884,2124.2352461251,3.608924,4.809421,8.3882548616,-4.47388,1.789552,0,246.8, -1.9, -12.3,0,0,1024,563,1024,1024,0,-70,0,0,231.5,0,0,84,3.951,3.944,0,0,0,0,7.364,115.52,2124.2352461251,3.608924,6,P-GPS,
241100,2025-07-25 04:05:39,-6.88077270741834,107.45498134932,3.608924,,,2124.2352461251,3.937008,5.1002232,5.709973936,13.5048560752,32,5,7.884,2124.2352461251,3.608924,5.1002232,8.3882548616,-4.697574,2.013246,0,246.9, -1.9, -11.5,0,0,1024,565,1024,1024,0,-70,0,0,231.5,0,0,84,3.951,3.944,0,0,0,0,7.364,115.52,2124.2352461251,3.608924,6,P-GPS,
241200,2025-07-25 04:05:39,-6.88077456882115,107.454982305438,3.608924,,,2124.2352461251,3.937008,5.4133948,5.7351379788,14.2671920576,32,5,7.884,2124.2352461251,3.608924,5.4133948,8.3882548616,-4.921268,2.23694,0,246.8, -2.9, -11.1,0,0,1024,635,1024,1024,0,-59,0,0,231.5,0,0,84,3.951,3.944,0,0,0,0,7.364,115.52,2124.2352461251,3.608924,6,P-GPS,
241300,2025-07-25 04:05:39,-6.88077674699566,107.454983286457,3.608924,,,2124.2352461251,3.937008,5.6147194,5.8423886384,15.1377301432,32,5,7.884,2124.2352461251,3.608924,5.6147194,8.3882548616,-5.144962,2.23694,0,246.7, -3.1, -11.5,0,0,1024,891,1024,1024,0,-20,0,0,231.5,0,0,84,3.951,3.944,0,0,0,0,7.364,115.52,2124.2352461251,3.608924,6,P-GPS,
241400,2025-07-25 04:05:39,-6.88077893230747,107.454984470466,3.608924,,,2124.2352461251,3.937008,5.9055216,6.1468833988,16.0430779412,32,5,7.894,2124.2352461251,3.608924,5.9055216,8.3882548616,-5.368656,2.460634,0,246.7, -3.1, -10,0,0,1024,1024,1024,1024,0,0,0,0,231.5,0,0,84,3.951,3.945,0,0,0,0,6.12,115.52,2124.2352461251,3.608924,6,P-GPS,
241500,2025-07-25 04:05:39,-6.88078119242441,107.454985538763,3.608924,,,2124.2352461251,3.937008,6.1068462,6.5225067704,16.9539703588,32,5,7.894,2124.2352461251,3.608924,6.1068462,8.3882548616,-5.59235,2.460634,0,246.9, -4.1, -2.8,0,0,1024,1179,1024,1024,0,23,0,0,231.5,0,0,84,3.951,3.945,0,0,0,0,6.12,115.52,2124.2352461251,3.608924,6,P-GPS,
241600,2025-07-25 04:05:40,-6.88078343760113,107.454986656812,3.608924,,,2124.2352461251,3.937008,5.9055216,7.0141734528,17.8677499156,32,5,7.894,2124.2352461251,3.608924,6.1068462,8.3882548616,-5.368656,2.460634,0,246.7, -4.4, 7,0,0,1024,1162,1024,1024,0,21,0,0,231.5,0,0,84,3.951,3.945,0,0,0,0,6.12,115.52,2124.2352461251,3.608924,6,P-GPS,
241700,2025-07-25 04:05:40,-6.88078551788062,107.454987657406,3.608924,,,2124.2352461251,3.937008,5.4133948,7.5278545716,18.708826058,32,5,7.894,2124.2352461251,3.608924,6.1068462,8.3882548616,-4.921268,2.23694,0,245.9, -4, 18.4,0,0,1024,1047,1024,1024,0,3,0,0,231.5,0,0,84,3.951,3.945,0,0,0,0,6.12,115.52,2124.2352461251,3.608924,6,P-GPS,
241800,2025-07-25 04:05:40,-6.88078728909592,107.454988532394,3.608924,,,2124.2352461251,3.937008,4.4962494,8.0169293904,19.4286095456,32,5,7.894,2124.2352461251,3.608924,6.1068462,8.3882548616,-4.026492,2.013246,0,245.7, -4.3, 28.5,0,0,1024,1025,1024,1024,0,0,0,0,231.5,0,0,84,3.951,3.945,0,0,0,0,6.12,115.52,2124.2352461251,3.608924,6,P-GPS,
241900,2025-07-25 04:05:40,-6.88078859507774,107.454989098103,3.608924,,,2124.2352461251,3.937008,2.9974996,8.3720147036,19.9472775412,32,5,7.894,2124.2352461251,3.608924,6.1068462,8.3882548616,-2.684328,1.342164,0,245.7, -4.9, 28.5,0,0,1024,1031,1024,1024,0,1,0,0,231.5,0,0,84,3.951,3.945,0,0,0,0,6.12,115.52,2124.2352461251,3.608924,6,P-GPS,
242000,2025-07-25 04:05:40,-6.88078941203235,107.454989564943,3.608924,,,2124.2352461251,3.937008,1.8119214,8.6403217988,20.2899612792,32,5,7.894,2124.2352461251,3.608924,6.1068462,8.6403217988,-1.565858,0.894776,0,245.9, -5.8, 17.7,0,0,1024,1326,1024,1024,0,46,0,0,231.5,0,0,84,3.951,3.945,0,0,0,0,6.12,115.52,2124.2352461251,3.608924,6,P-GPS,
242100,2025-07-25 04:05:40,-6.88078988288988,107.454989884142,3.608924,,,2124.2352461251,3.937008,1.2974252,8.81397666,20.4970479,32,5,7.894,2124.2352461251,3.608924,6.1068462,8.81397666,-1.11847,0.671082,0,246.2, -6.6, 12.4,0,0,1024,1226,1024,1024,0,31,0,0,231.5,0,0,84,3.951,3.945,0,0,0,0,6.12,115.52,2124.2352461251,3.608924,6,P-GPS,
242200,2025-07-25 04:05:40,-6.88079015786906,107.454990110131,3.608924,,,2124.2352461251,3.937008,0.8052984,8.929134144,20.6265426548,32,5,7.894,2124.2352461251,3.608924,6.1068462,8.929134144,-0.671082,0.447388,0,246.7, -6, 12.9,0,0,1024,1024,1024,1024,0,0,0,0,231.5,0,0,84,3.951,3.945,0,0,0,0,6.12,115.52,2124.2352461251,3.608924,6,P-GPS,
242300,2025-07-25 04:05:40,-6.88079046068538,107.45499028578,3.608924,,,2124.2352461251,3.937008,0.4921268,9.0322509452,20.7540360972,32,5,7.894,2124.2352461251,3.608924,6.1068462,9.0322509452,-0.447388,0.223694,0,246.8, -5.2, 14.6,0,0,1024,1024,1024,1024,0,0,0,0,231.5,0,0,84,3.951,3.945,0,0,0,0,6.12,115.52,2124.2352461251,3.608924,6,P-GPS,
242400,2025-07-25 04:05:40,-6.88079051647558,107.454990367797,3.608924,,,2124.2352461251,3.937008,0,9.0677168256,20.790026912,32,5,7.891,2124.2352461251,3.608924,6.1068462,9.0677168256,0,0,0,246.8, -4.9, 10.3,0,0,1024,1024,1024,1024,0,0,0,0,231.5,0,0,84,3.943,3.938,0,0,0,0,6.36,115.52,2124.2352461251,3.608924,6,P-GPS,
242500,2025-07-25 04:05:41,-6.88079052192342,107.454990392545,3.608924,,,2124.2352461251,3.937008,0,9.0767063272,20.799213264,32,5,7.891,2124.2352461251,3.608924,6.1068462,9.0767063272,0,0,0,246.8, -5.2, 4.5,0,0,1009,1024,1024,1024,-2,0,0,0,231.5,0,0,84,3.943,3.938,0,0,0,0,6.36,115.52,2124.2352461251,3.608924,6,P-GPS,
242600,2025-07-25 04:05:41,-6.88079042429976,107.454990364203,3.608924,,,2124.2352461251,3.937008,0,9.0527233868,20.836286756,31,5,7.891,2124.2352461251,3.608924,6.1068462,9.0767063272,0,0,0,246.8, -5.3, 4.7,0,0,581,1024,1024,1024,-67,0,0,0,231.5,0,0,84,3.943,3.938,0,0,0,0,6.36,115.52,2124.2352461251,3.608924,6,P-GPS,
242700,2025-07-25 04:05:41,-6.88079040511885,107.454990351481,3.608924,,,2124.2352461251,3.937008,0,9.0456695808,20.844652898,31,5,7.891,2124.2352461251,3.608924,6.1068462,9.0767063272,0,0,0,247, -3.3, 4.8,0,0,454,1024,1024,1024,-86,0,0,0,231.5,0,0,84,3.943,3.938,0,0,0,0,6.36,115.52,2124.2352461251,3.608924,6,P-GPS,
242800,2025-07-25 04:05:41,-6.88079029910004,107.454990339618,3.608924,,,2124.2352461251,3.937008,0,9.0260173492,20.8835964688,31,5,7.891,2124.2352461251,3.608924,6.1068462,9.0767063272,0,0,0,247.1, 5.1, 4,0,0,403,1024,1024,1024,-94,0,0,0,231.5,0,0,84,3.943,3.938,0,0,0,0,6.36,115.52,2124.2352461251,3.608924,6,P-GPS,
242900,2025-07-25 04:05:41,-6.8807902077773,107.454990443346,3.608924,,,2124.2352461251,4.265092,0.3131716,9.0469819168,20.9337933208,31,5,7.891,2124.2352461251,3.608924,6.1068462,9.0767063272,0.223694,0.223694,0,247.1, 15.2, 2.8,0,0,384,1024,1024,1024,-97,0,0,0,231.5,0,0,84,3.943,3.938,0,0,0,0,6.36,115.52,2124.2352461251,3.608924,6,P-GPS,
243000,2025-07-25 04:05:41,-6.88079003543795,107.454990817983,3.608924,,,2124.2352461251,4.265092,1.2079476,9.1468506864,21.0833668164,31,5,7.891,2124.2352461251,3.608924,6.1068462,9.1468506864,0.447388,1.11847,0,247.2, 21.7, 3,0,0,364,1024,1024,1024,-100,0,0,0,231.5,0,0,84,3.943,3.938,0,0,0,0,6.36,115.52,2124.2352461251,3.608924,6,P-GPS,
243100,2025-07-25 04:05:41,-6.88078970913612,107.454991548121,3.608924,,,2124.2352461251,4.265092,2.125093,9.3465882256,21.3733930724,31,5,7.891,2124.2352461251,3.608924,6.1068462,9.3465882256,0.671082,2.013246,0,247.4, 21.1, 4.3,0,0,366,1024,1024,1024,-100,0,0,0,231.5,0,0,84,3.943,3.938,0,0,0,0,6.36,115.52,2124.2352461251,3.608924,6,P-GPS,
243200,2025-07-25 04:05:41,-6.88078907481362,107.454992846306,3.608924,,,2124.2352461251,4.265092,3.1093466,9.7064307568,21.8975072624,31,5,7.891,2124.2352461251,3.608924,6.1068462,9.7064307568,1.11847,2.908022,0,247.3, 19.3, 4.7,0,0,369,1024,1024,1024,-99,0,0,0,231.5,0,0,84,3.943,3.938,0,0,0,0,6.36,115.52,2124.2352461251,3.608924,6,P-GPS,
243300,2025-07-25 04:05:41,-6.88078848697458,107.454994229276,3.608924,,,2124.2352461251,4.265092,3.914645,10.1150593788,22.442421978,31,5,7.891,2124.2352461251,3.608924,6.1068462,10.1150593788,1.565858,3.579104,0,247.1, 19, 4.3,0,0,372,1024,1024,1024,-99,0,0,0,231.5,0,0,84,3.943,3.938,0,0,0,0,6.36,115.52,2124.2352461251,3.608924,6,P-GPS,
243400,2025-07-25 04:05:41,-6.88078780992853,107.454996011227,3.608924,,,2124.2352461251,4.265092,4.6080964,10.6670279004,23.133530924,31,5,7.879,2124.2352461251,3.608924,6.1068462,10.6670279004,1.789552,4.250186,0,247.1, 18.6, 4.2,0,0,372,1024,1024,1024,-99,0,0,0,231.5,0,0,83,3.941,3.936,0,0,0,0,6.505,115.52,2124.2352461251,3.608924,6,P-GPS,
243500,2025-07-25 04:05:42,-6.88078697584416,107.454997954436,3.608924,,,2124.2352461251,4.265092,5.3239172,11.2788389436,23.9003616572,31,5,7.879,2124.2352461251,3.608924,6.1068462,11.2788389436,2.013246,4.921268,0,247.1, 17.8, 4.5,0,0,373,1024,1024,1024,-99,0,0,0,231.5,0,0,83,3.941,3.936,0,0,0,0,6.505,115.52,2124.2352461251,3.608924,6,P-GPS,
243600,2025-07-25 04:05:42,-6.88078599567912,107.455000212017,3.608924,,,2124.2352461251,4.265092,6.0173686,12.0112864736,24.7928813708,32,5,7.879,2124.2352461251,3.608924,6.1068462,12.0112864736,2.23694,5.59235,0,247.2, 17.4, 4.6,0,0,373,1024,1024,1024,-99,0,0,0,231.5,0,0,83,3.941,3.936,0,0,0,0,6.505,115.52,2124.2352461251,3.608924,6,P-GPS,
243700,2025-07-25 04:05:42,-6.88078495926632,107.455002611797,3.608924,,,2124.2352461251,4.265092,6.5318648,12.8124347932,25.740814472,32,5,7.879,2124.2352461251,3.608924,6.5318648,12.8124347932,2.460634,6.039738,0,247.1, 17, 4.4,0,0,373,1024,1024,1024,-99,0,0,0,231.5,0,0,83,3.941,3.936,0,0,0,0,6.505,115.52,2124.2352461251,3.608924,6,P-GPS,
243800,2025-07-25 04:05:42,-6.88078383012987,107.455005221052,3.608924,,,2124.2352461251,4.265092,7.0239916,13.7046920396,26.7718512504,32,5,7.879,2124.2352461251,3.608924,7.0239916,13.7046920396,2.684328,6.487126,0,247.3, 16.5, 4.5,0,0,375,1024,1024,1024,-98,0,0,0,231.5,0,0,83,3.941,3.936,0,0,0,0,6.505,115.52,2124.2352461251,3.608924,6,P-GPS,
243900,2025-07-25 04:05:42,-6.88078249409719,107.455008233381,3.608924,,,2124.2352461251,4.265092,7.717443,14.7566277688,27.9668972204,32,5,7.879,2124.2352461251,3.608924,7.717443,14.7566277688,2.908022,7.158208,0,247.3, 16.4, 4.5,0,0,376,1024,1024,1024,-98,0,0,0,231.5,0,0,83,3.941,3.936,0,0,0,0,6.505,115.52,2124.2352461251,3.608924,6,P-GPS,
244000,2025-07-25 04:05:42,-6.88078118976295,107.455011227023,3.608924,,,2124.2352461251,3.937008,8.0082452,15.8223758344,29.15108361,32,5,7.879,2124.2352461251,3.608924,8.0082452,15.8223758344,3.131716,7.381902,0,247.3, 16.4, 4.5,0,0,379,1024,1024,1024,-98,0,0,0,231.5,0,0,83,3.941,3.936,0,0,0,0,6.505,115.52,2124.2352461251,3.608924,6,P-GPS,
244100,2025-07-25 04:05:42,-6.88077954124015,107.455014574029,3.608924,,,2124.2352461251,4.265092,8.5227414,17.0333994952,30.5044629184,32,5,7.879,2124.2352461251,3.608924,8.5227414,17.0333994952,3.35541,7.82929,0,247.3, 16.1, 4.3,0,0,390,1024,1024,1024,-96,0,0,0,231.5,0,0,83,3.941,3.936,0,0,0,0,6.505,115.52,2124.2352461251,3.608924,6,P-GPS,
244200,2025-07-25 04:05:42,-6.88077797559907,107.455018021998,3.608924,,,2124.2352461251,3.937008,9.0148682,18.2995740764,31.8778225424,32,5,7.879,2124.2352461251,3.608924,9.0148682,18.2995740764,3.579104,8.276678,0,247.3, 15.6, 3.6,0,0,399,1024,1024,1024,-95,0,0,0,231.5,0,0,83,3.941,3.936,0,0,0,0,6.505,115.52,2124.2352461251,3.608924,6,P-GPS,
244300,2025-07-25 04:05:42,-6.88077643219018,107.455021503828,3.608924,,,2124.2352461251,3.937008,9.506995,19.5917985272,33.258859332,32,5,7.879,2124.2352461251,3.608924,9.506995,19.5917985272,3.802798,8.724066,0,247, 15.1, 3.7,0,0,399,1024,1024,1024,-95,0,0,0,231.5,0,0,83,3.941,3.936,0,0,0,0,6.505,115.52,2124.2352461251,3.608924,6,P-GPS,
244400,2025-07-25 04:05:42,-6.88077474234573,107.455025196094,3.608924,,,2124.2352461251,3.937008,9.506995,20.9764114324,34.731628408,32,5,7.874,2124.2352461251,3.608924,9.506995,20.9764114324,4.026492,8.94776,0,247, 14.9, 3.5,0,0,400,1024,1024,1024,-95,0,0,0,231.5,0,0,83,3.939,3.935,0,0,0,0,6.826,115.52,2124.2352461251,3.608924,6,P-GPS,
244500,2025-07-25 04:05:43,-6.88077306916221,107.45502892822,3.608924,,,2124.2352461251,3.937008,10.0214912,22.3858931048,36.214896172,32,5,7.874,2124.2352461251,3.608924,10.0214912,22.3858931048,4.026492,9.171454,0,246.9, 14.6, 2,0,0,405,1024,1024,1024,-94,0,0,0,231.5,0,0,83,3.939,3.935,0,0,0,0,6.826,115.52,2124.2352461251,3.608924,6,P-GPS,
244600,2025-07-25 04:05:43,-6.88077122406291,107.455032816467,3.608924,,,2124.2352461251,3.937008,10.0214912,23.8689640184,37.775919844,32,5,7.874,2124.2352461251,3.608924,10.0214912,23.8689640184,4.026492,9.395148,0,247, 14.3, 0.8,0,0,419,1024,1024,1024,-92,0,0,0,231.5,0,0,83,3.939,3.935,0,0,0,0,6.826,115.52,2124.2352461251,3.608924,6,P-GPS,
244700,2025-07-25 04:05:43,-6.88076949293024,107.455036756877,3.608924,,,2124.2352461251,3.937008,10.7149426,25.3735900508,39.336943516,32,5,7.874,2124.2352461251,3.608924,10.7149426,25.3735900508,4.250186,9.842536,0,247.1, 14.4, 1.5,0,0,419,1024,1024,1024,-92,0,0,0,231.5,0,0,83,3.939,3.935,0,0,0,0,6.826,115.52,2124.2352461251,3.608924,6,P-GPS,
244800,2025-07-25 04:05:43,-6.88076757750407,107.455040925519,3.608924,,,2124.2352461251,3.937008,10.7149426,26.9775599184,41.00065748,32,5,7.874,2124.2352461251,3.608924,10.7149426,26.9775599184,4.250186,10.06623,0,246.9, 14.4, 2.3,0,0,513,1024,1024,1024,-77,0,0,0,231.5,0,0,83,3.939,3.935,0,0,0,0,6.826,115.52,2124.2352461251,3.608924,6,P-GPS,
244900,2025-07-25 04:05:43,-6.88076587364883,107.455044860563,3.608924,,,2124.2352461251,3.937008,11.1399612,28.4909129852,42.55577564,32,5,7.874,2124.2352461251,3.608924,11.1399612,28.4909129852,4.250186,10.289924,0,246.8, 12.4, 2.2,0,0,915,1024,1024,1024,-17,0,0,0,231.5,0,0,83,3.939,3.935,0,0,0,0,6.826,115.52,2124.2352461251,3.608924,6,P-GPS,
245000,2025-07-25 04:05:43,-6.88076397796066,107.455049261518,3.608924,,,2124.2352461251,3.937008,11.1399612,30.1877306248,44.293308504,32,5,7.874,2124.2352461251,3.608924,11.1399612,30.1877306248,4.250186,10.289924,0,246.7, 4, 1.9,0,0,1024,1024,1024,1024,0,0,0,0,231.5,0,0,83,3.939,3.935,0,0,0,0,6.826,115.52,2124.2352461251,3.608924,6,P-GPS,
245100,2025-07-25 04:05:43,-6.88076216037568,107.455053440471,3.608924,,,2124.2352461251,3.937008,10.9162672,31.8043973432,45.945867612,32,5,7.874,2124.2352461251,3.608924,11.1399612,31.8043973432,4.250186,10.06623,0,246.6, -7.2, 2.1,0,0,1024,1024,1024,1024,0,0,0,0,231.5,0,0,83,3.939,3.935,0,0,0,0,6.826,115.52,2124.2352461251,3.608924,6,P-GPS,
245200,2025-07-25 04:05:43,-6.88076063306307,107.455057475684,3.937008,,,2124.5633301251,3.608924,10.9162672,33.350722852,47.510172124,32,5,7.874,2124.5633301251,3.937008,11.1399612,33.350722852,3.802798,9.395148,0,246.2, -19.3, 2.7,0,0,1024,1024,1024,1024,0,0,0,0,231.5,0,0,83,3.939,3.935,0,0,0,0,6.826,115.52,2124.5633301251,3.937008,6,P-GPS,
245300,2025-07-25 04:05:43,-6.88075915608695,107.455061096632,3.608924,,,2124.2352461251,3.608924,9.1490846,34.748360692,48.928151172,32,5,7.874,2124.5633301251,3.937008,11.1399612,34.748360692,3.35541,8.500372,0.223694,246, -28, 4,0,0,1024,1024,1024,1024,0,0,0,0,231.5,0,0,83,3.939,3.935,0,0,0,0,6.826,115.52,2124.2352461251,3.608924,6,P-GPS,
245400,2025-07-25 04:05:43,-6.88075807664376,107.455063982137,3.608924,,,2124.2352461251,3.608924,7.5161184,35.855316108,50.045277192,32,5,7.871,2124.5633301251,3.937008,11.1399612,35.855316108,2.908022,6.934514,0.223694,245.8, -28.3, 3.1,0,0,1024,1037,1024,1024,0,2,0,0,231.5,0,0,83,3.934,3.927,0,0,0,0,6.695,115.52,2124.2352461251,3.608924,6,P-GPS,
245500,2025-07-25 04:05:43,-6.88075706742297,107.455066491098,3.608924,,,2124.2352461251,3.608924,6.0173686,36.82414816,51.025592184,32,5,7.871,2124.5633301251,3.937008,11.1399612,36.82414816,2.23694,5.59235,0,246, -28.2, 2.4,0,0,1024,1057,1024,1024,0,5,0,0,231.5,0,0,83,3.934,3.927,0,0,0,0,6.695,115.52,2124.2352461251,3.608924,6,P-GPS,
245600,2025-07-25 04:05:44,-6.88075634442222,107.455068356638,3.608924,,,2124.2352461251,3.608924,4.7423128,37.54265212,51.750985908,32,5,7.871,2124.5633301251,3.937008,11.1399612,37.54265212,1.565858,4.47388,0,245.7, -27.4, 3.8,0,0,1024,1058,1024,1024,0,5,0,0,231.5,0,0,83,3.934,3.927,0,0,0,0,6.695,115.52,2124.2352461251,3.608924,6,P-GPS,
245700,2025-07-25 04:05:44,-6.88075575803097,107.45507000519,3.608924,,,2124.2352461251,3.608924,3.5343652,38.173229568,52.385500364,32,5,7.871,2124.5633301251,3.937008,11.1399612,38.173229568,1.11847,3.35541,0,245, -26.8, 5.4,0,0,1024,1077,1024,1024,0,8,0,0,231.5,0,0,83,3.934,3.927,0,0,0,0,6.695,115.52,2124.2352461251,3.608924,6,P-GPS,
245800,2025-07-25 04:05:44,-6.88075534874744,107.455071223498,3.937008,,,2124.5633301251,3.608924,2.5501116,38.637140344,52.851379644,32,5,7.871,2124.5633301251,3.937008,11.1399612,38.637140344,0.671082,2.460634,0,245, -24.1, 6,0,0,1024,1136,1024,1024,0,17,0,0,231.5,0,0,83,3.934,3.927,0,0,0,0,6.695,115.52,2124.5633301251,3.937008,6,P-GPS,
245900,2025-07-25 04:05:44,-6.88075524567969,107.455071688942,3.937008,,,2124.5633301251,3.608924,1.6329662,38.809712528,53.023951828,32,5,7.871,2124.5633301251,3.937008,11.1399612,38.809712528,0.447388,1.565858,0,245.6, -18.1, 5.8,0,0,1024,1217,1024,1024,0,29,0,0,231.5,0,0,83,3.934,3.927,0,0,0,0,6.695,115.52,2124.5633301251,3.937008,6,P-GPS,
246000,2025-07-25 04:05:44,-6.88075506433396,107.455072266117,3.937008,,,2124.5633301251,3.608924,1.6329662,39.028544556,53.243440024,32,5,7.871,2124.5633301251,3.937008,11.1399612,39.028544556,0.223694,1.11847,0,245.9, -13.5, 5.9,0,0,1024,1369,1024,1024,0,52,0,0,231.5,0,0,83,3.934,3.927,0,0,0,0,6.695,115.52,2124.5633301251,3.937008,6,P-GPS,
246100,2025-07-25 04:05:44,-6.88075490292583,107.455072566391,3.937008,,,2124.5633301251,3.608924,0.7158208,39.148295216,53.367127692,32,5,7.871,2124.5633301251,3.937008,11.1399612,39.148295216,0.223694,0.671082,0,245.9, -11.1, 6.4,0,0,1024,1493,1024,1024,0,71,0,0,231.5,0,0,83,3.934,3.927,0,0,0,0,6.695,115.52,2124.5633301251,3.937008,6,P-GPS,
246200,2025-07-25 04:05:44,-6.88075483321877,107.455072732995,3.937008,,,2124.5633301251,3.608924,0.223694,39.212927764,53.432416408,32,5,7.871,2124.5633301251,3.937008,11.1399612,39.212927764,0,0.223694,0,246, -9.4, 9.1,0,0,1024,1522,1024,1024,0,75,0,0,231.5,0,0,83,3.934,3.927,0,0,0,0,6.695,115.52,2124.5633301251,3.937008,6,P-GPS,
246300,2025-07-25 04:05:44,-6.88075473313441,107.455072839703,3.937008,,,2124.5633301251,3.937008,0.223694,39.259187608,53.485566016,32,5,7.871,2124.5633301251,3.937008,11.1399612,39.259187608,0.223694,0,0,246.2, -7.1, 16.5,0,0,1024,1526,1024,1024,0,76,0,0,231.5,0,0,83,3.934,3.927,0,0,0,0,6.695,115.52,2124.5633301251,3.937008,6,P-GPS,
246400,2025-07-25 04:05:44,-6.88075455144609,107.455072557522,3.937008,,,2124.5633301251,3.937008,0.223694,39.175526188,53.607613264,32,5,7.862,2124.5633301251,3.937008,11.1399612,39.259187608,0.671082,0,0,245.8, -5.8, 18.9,0,0,1024,1526,1024,1024,0,76,0,0,231.5,0,0,83,3.941,3.937,0,0,0,0,8.536,115.52,2124.5633301251,3.937008,6,P-GPS,
246500,2025-07-25 04:05:44,-6.88075412514192,107.455072390582,3.937008,,,2124.5633301251,3.937008,1.2079476,39.154528812,53.774279936,32,5,7.862,2124.5633301251,3.937008,11.1399612,39.259187608,1.11847,-0.447388,0,245.4, -5.7, 18.3,0,0,1024,1531,1024,1024,0,77,0,0,231.5,0,0,83,3.941,3.937,0,0,0,0,8.536,115.52,2124.5633301251,3.937008,6,P-GPS,
246600,2025-07-25 04:05:45,-6.880753536367,107.455072014219,3.937008,,,2124.5633301251,3.937008,1.4987498,39.075460568,54.02887312,32,5,7.862,2124.5633301251,3.937008,11.1399612,39.259187608,1.342164,-0.671082,0,245.7, -5, 19.5,0,0,1024,1532,1024,1024,0,77,0,0,231.5,0,0,83,3.941,3.937,0,0,0,0,8.536,115.52,2124.5633301251,3.937008,6,P-GPS,
246700,2025-07-25 04:05:45,-6.88075279129504,107.455071619626,3.937008,,,2124.5633301251,3.937008,1.9908766,39.00590676,54.335959744,32,5,7.862,2124.5633301251,3.937008,11.1399612,39.259187608,1.789552,-0.894776,0,246.2, -3.1, 20.5,0,0,1024,1531,1024,1024,0,77,0,0,231.5,0,0,83,3.941,3.937,0,0,0,0,8.536,115.52,2124.5633301251,3.937008,6,P-GPS,
246800,2025-07-25 04:05:45,-6.88075179889112,107.45507111885,3.937008,,,2124.5633301251,3.937008,2.7066974,38.925854264,54.7408154,32,5,7.862,2124.5633301251,3.937008,11.1399612,39.259187608,2.460634,-1.11847,0,246.2, -2.3, 19.6,0,0,1024,1531,1024,1024,0,77,0,0,231.5,0,0,83,3.941,3.937,0,0,0,0,8.536,115.52,2124.5633301251,3.937008,6,P-GPS,
246900,2025-07-25 04:05:45,-6.88075066334825,107.455070569163,3.937008,,,2124.5633301251,3.608924,3.1988242,38.847114104,55.200461084,32,5,7.862,2124.5633301251,3.937008,11.1399612,39.259187608,2.908022,-1.342164,0,246.1, -2.4, 18.9,0,0,1024,1533,1024,1024,0,77,0,0,231.5,0,0,83,3.941,3.937,0,0,0,0,8.536,115.52,2124.5633301251,3.937008,6,P-GPS,
247000,2025-07-25 04:05:45,-6.88074937666896,107.455069962929,3.937008,,,2124.5633301251,3.608924,3.4001488,38.770342448,55.718833804,32,5,7.862,2124.5633301251,3.937008,11.1399612,39.259187608,3.131716,-1.342164,0,245.8, -2.4, 18.9,0,0,1024,1533,1024,1024,0,77,0,0,231.5,0,0,83,3.941,3.937,0,0,0,0,8.536,115.52,2124.5633301251,3.937008,6,P-GPS,
247100,2025-07-25 04:05:45,-6.88074794765905,107.455069228003,3.937008,,,2124.5633301251,3.937008,3.914645,38.671589164,56.30413566,32,5,7.862,2124.5633301251,3.937008,11.1399612,39.259187608,3.579104,-1.565858,0,246.1, -2, 19.3,0,0,1024,1532,1024,1024,0,77,0,0,231.5,0,0,83,3.941,3.937,0,0,0,0,8.536,115.52,2124.5633301251,3.937008,6,P-GPS,
247200,2025-07-25 04:05:45,-6.88074631109092,107.45506848991,3.937008,,,2124.5633301251,3.608924,4.2054472,38.604660028,56.958335156,32,5,7.862,2124.5633301251,3.937008,11.1399612,39.259187608,3.802798,-1.789552,0,246.7, -0.8, 19.9,0,0,1024,1533,1024,1024,0,77,0,0,231.5,0,0,83,3.941,3.937,0,0,0,0,8.536,115.52,2124.5633301251,3.937008,6,P-GPS,
247300,2025-07-25 04:05:45,-6.88074460111025,107.455067755259,3.937008,,,2124.5633301251,3.937008,4.6080964,38.558728268,57.636812868,32,5,7.862,2124.5633301251,3.937008,11.1399612,39.259187608,4.250186,-1.789552,0,246.5, -1.3, 20.1,0,0,1024,1531,1024,1024,0,77,0,0,231.5,0,0,83,3.941,3.937,0,0,0,0,8.536,115.52,2124.5633301251,3.937008,6,P-GPS,
247400,2025-07-25 04:05:45,-6.88074264109648,107.455067044629,3.937008,,,2124.5633301251,3.608924,5.033115,38.565289948,58.396655412,32,5,7.873,2124.5633301251,3.937008,11.1399612,39.259187608,4.697574,-1.789552,0,246.1, -2.5, 20,0,0,1024,1531,1024,1024,0,77,0,0,231.5,0,0,83,3.94,3.936,0,0,0,0,6.572,115.88,2124.5633301251,3.937008,6,P-GPS,
247500,2025-07-25 04:05:45,-6.88074066847662,107.455066251533,3.937008,,,2124.5633301251,3.608924,5.2344396,38.561024856,59.17158982,32,5,7.873,2124.5633301251,3.937008,11.1399612,39.259187608,4.921268,-1.789552,0,246, -3.2, 20.2,0,0,1024,1531,1024,1024,0,77,0,0,231.5,0,0,83,3.94,3.936,0,0,0,0,6.572,115.88,2124.5633301251,3.937008,6,P-GPS,
247600,2025-07-25 04:05:46,-6.88073841902908,107.455065280369,3.937008,,,2124.5633301251,3.608924,5.5252418,38.552822756,60.064634468,32,5,7.873,2124.5633301251,3.937008,11.1399612,39.259187608,5.144962,-2.013246,0,246, -3.5, 21,0,0,1024,1531,1024,1024,0,77,0,0,231.5,0,0,83,3.94,3.936,0,0,0,0,6.572,115.88,2124.5633301251,3.937008,6,P-GPS,
247700,2025-07-25 04:05:46,-6.88073624529637,107.455064401625,3.937008,,,2124.5633301251,3.608924,5.7265664,38.58431882,60.919293288,32,5,7.873,2124.5633301251,3.937008,11.1399612,39.259187608,5.368656,-2.013246,0,246.2, -3.1, 21.9,0,0,1024,1531,1024,1024,0,77,0,0,231.5,0,0,83,3.94,3.936,0,0,0,0,6.572,115.88,2124.5633301251,3.937008,6,P-GPS,
